[
  {
    "name": "Franecki-Heaney",
    "email": "lblacklock0@imdb.com",
    "whatsapp": "3328679161",
    "latitude": -23.201348615022734,
    "longitude": -47.28920072643582,
    "city": "Salto",
    "uf": "SP",
    "items": [2, 4]
  },
  {
    "name": "Larson-Goldner",
    "email": "mkryszka1@gov.uk",
    "whatsapp": "2671937040",
    "latitude": -23.201121808318366,
    "longitude": -47.286958399784815,
    "city": "Salto",
    "uf": "SP",
    "items": [5, 6]
  },
  {
    "name": "Green, Johnson and Mann",
    "email": "hrush2@geocities.com",
    "whatsapp": "3872232045",
    "latitude": -23.202305143411618,
    "longitude": -47.285059395874626,
    "city": "Salto",
    "uf": "SP",
    "items": [1, 3, 5]
  },
  {
    "name": "Effertz-Hamill",
    "email": "bmcpeck3@meetup.com",
    "whatsapp": "7182922448",
    "latitude": -23.203094027653883,
    "longitude": -47.29046672904262,
    "city": "Salto",
    "uf": "SP",
    "items": [1, 2, 5]
  },
  {
    "name": "Kassulke-Bernier",
    "email": "dduncombe4@latimes.com",
    "whatsapp": "7863910529",
    "latitude": -23.204750669407005,
    "longitude": -47.28780597780123,
    "city": "Salto",
    "uf": "SP",
    "items": [4, 6]
  },
  {
    "name": "Stanton-Will",
    "email": "avidler5@ycombinator.com",
    "whatsapp": "8668960408",
    "latitude": -23.184499409286154,
    "longitude": -47.286934724945915,
    "city": "Salto",
    "uf": "SP",
    "items": [1, 3, 5, 6]
  },
  {
    "name": "Keebler Inc",
    "email": "hcasin6@blogs.com",
    "whatsapp": "7244400378",
    "latitude": -23.183856423152676,
    "longitude": -47.27163538419245,
    "city": "Salto",
    "uf": "SP",
    "items": [1]
  },
  {
    "name": "Senger, Dach and O'Conner",
    "email": "hlowther7@census.gov",
    "whatsapp": "5433852649",
    "latitude": -23.194313826407125,
    "longitude": -47.27856951704725,
    "city": "Salto",
    "uf": "SP",
    "items": [3]
  },
  {
    "name": "Kshlerin and Sons",
    "email": "dchanter8@ibm.com",
    "whatsapp": "1226553799",
    "latitude": -23.19193312681116,
    "longitude": -47.28410614982019,
    "city": "Salto",
    "uf": "SP",
    "items": [6]
  },
  {
    "name": "Mraz-Baumbach",
    "email": "jmoncrefe9@wix.com",
    "whatsapp": "9369382583",
    "latitude": -23.19374453253344,
    "longitude": -47.275904426017554,
    "city": "Salto",
    "uf": "SP",
    "items": [1, 4]
  },
  {
    "name": "Beier-Davis",
    "email": "apessela@google.com.hk",
    "whatsapp": "7374693463",
    "latitude": -23.195469658028053,
    "longitude": -47.274102674335516,
    "city": "Salto",
    "uf": "SP",
    "items": [2, 5]
  },
  {
    "name": "Hermiston, Bechtelar and Howe",
    "email": "klampingb@geocities.com",
    "whatsapp": "2644738423",
    "latitude": -23.194607098062814,
    "longitude": -47.26980474584397,
    "city": "Salto",
    "uf": "SP",
    "items": [1, 2, 3]
  },
  {
    "name": "Harber, West and Collier",
    "email": "efewkesc@netscape.com",
    "whatsapp": "1404945362",
    "latitude": -23.197229263103157,
    "longitude": -47.27295781128755,
    "city": "Salto",
    "uf": "SP",
    "items": [4, 5, 6]
  },
  {
    "name": "Ward, Schmeler and Fritsch",
    "email": "spaulad@unicef.org",
    "whatsapp": "4419992674",
    "latitude": -23.197125757563292,
    "longitude": -47.27492847718979,
    "city": "Salto",
    "uf": "SP",
    "items": [1, 4]
  },
  {
    "name": "Ortiz, Hills and Monahan",
    "email": "abernardye@themeforest.net",
    "whatsapp": "1622989049",
    "latitude": -23.1917088558243,
    "longitude": -47.27909502795451,
    "city": "Salto",
    "uf": "SP",
    "items": [3, 6]
  }
]
